City_ID,City,Lat,Lng,Max Temp,Humidity,Cloudiness,Wind Speed,Pressure,Country,Date
0,Yellowknife,62.456,-114.3525,-12.48,77,75,5.75,1032,CA,1734400602
1,Ribeira Grande,38.5167,-28.7,63.77,76,8,15.01,1012,PT,1734400645
2,Tobelo,1.7284,128.0095,85.55,70,95,2.98,1008,ID,1734400448
3,Turuntayevo,52.2,107.6167,11.21,98,100,1.57,1046,RU,1734400648
4,Anadyr,64.75,177.4833,19.9,73,100,17.9,1012,RU,1734400649
5,Grand Falls-Windsor,48.9332,-55.6649,30.51,74,100,1.01,1026,CA,1734400650
6,Coquimbo,-29.9533,-71.3436,58.73,81,0,4.61,1014,CL,1734400532
7,Adamstown,-25.066,-130.1015,72.07,70,8,14.88,1013,PN,1734400374
8,Punta Arenas,-53.15,-70.9167,53.71,76,0,8.05,1008,CL,1734400653
9,Chekmagush,55.1319,54.6556,24.64,90,90,13.47,999,RU,1734400654
10,Blackmans Bay,-43.0167,147.3167,68.74,47,4,4.0,999,AU,1734400655
11,Lihue,21.9789,-159.3672,78.39,73,75,5.75,1014,US,1734400656
12,Vernon,50.2581,-119.2691,33.75,89,100,4.61,1019,CA,1734400521
13,Egilsstadir,65.2653,-14.3948,22.91,86,0,3.44,1003,IS,1734400659
14,Ixtapa,20.7,-105.2,69.94,90,100,1.5,1014,MX,1734400660
15,Constanța,44.1833,28.65,41.7,77,18,17.54,1025,RO,1734400446
16,Port-aux-Français,-49.35,70.2167,42.69,80,1,31.7,989,TF,1734400663
17,Kenora,49.8167,-94.4337,27.57,93,100,15.01,1010,CA,1734400664
18,Udachny,66.4167,112.4,14.16,92,100,17.81,1019,RU,1734400665
19,Mossamedes,-15.1961,12.1522,70.39,79,74,3.74,1010,AO,1734400666
20,Rawson,-43.3002,-65.1023,73.69,38,0,14.97,1013,AR,1734400667
21,Bredasdorp,-34.5322,20.0403,56.86,69,1,6.49,1016,ZA,1734400669
22,Hotan,37.0997,79.9269,20.61,63,33,6.13,1038,CN,1734400670
23,Susuman,62.7833,148.1667,-19.25,100,92,2.19,1025,RU,1734400671
24,Dumai,1.6833,101.45,79.5,87,100,0.69,1012,ID,1734400672
25,Berdigestyakh,62.0989,126.6992,-29.92,100,99,2.35,1031,RU,1734400673
26,Klyuchi,52.2667,79.1667,3.06,86,71,9.44,1043,RU,1734400674
27,Chicoana,-25.1009,-65.5331,68.05,66,95,4.9,1017,AR,1734400675
28,Madīnat ash Shamāl,26.1293,51.2009,64.47,64,15,11.95,1021,QA,1734400676
29,Puerto Natales,-51.7236,-72.4875,53.73,86,96,3.38,1009,CL,1734400677
30,Korkuteli,37.065,30.1957,35.98,83,4,4.99,1028,TR,1734400678
31,Poyarkovo,49.6,128.6833,-17.12,96,93,4.09,1029,RU,1734400680
32,Port Elizabeth,-33.918,25.5701,64.69,74,0,14.97,1015,ZA,1734400681
33,Iskateley,67.6803,53.1512,-10.55,93,16,7.07,999,RU,1734400682
34,Waitangi,-43.9535,-176.5597,58.82,87,100,8.99,1010,NZ,1734400684
35,Grytviken,-54.2811,-36.5092,34.9,87,23,10.63,987,GS,1734400685
36,Dryden,49.7833,-92.7503,32.29,93,100,11.5,1005,CA,1734400686
37,Springbok,-29.6643,17.8865,46.94,68,0,3.76,1015,ZA,1734400687
38,West Island,-12.1568,96.8225,80.58,89,75,9.22,1009,CC,1734400688
39,Fortuna,40.5982,-124.1573,52.93,95,100,9.22,1019,US,1734400690
40,Bardai,11.65,7.2333,57.31,24,50,9.78,1015,NG,1734400691
41,Princeton,25.5384,-80.4089,74.01,96,100,14.97,1020,US,1734400692
42,Nemuro,43.3236,145.575,27.27,48,1,17.92,1014,JP,1734400693
43,Magadan,59.5667,150.8,9.55,74,100,12.55,1005,RU,1734400694
44,Turpan,42.9333,89.1667,21.47,58,0,1.52,1041,CN,1734400695
45,Kurchatov,51.6601,35.6521,35.15,78,94,22.93,1001,RU,1734400696
46,Albany,42.6001,-73.9662,39.4,96,100,4.0,1023,US,1734400620
47,Port Mathurin,-19.6833,63.4167,77.16,68,62,21.72,1018,MU,1734400698
48,Isaka,-3.9,32.9333,66.07,91,100,5.17,1011,TZ,1734400699
49,Geraldton,-28.7667,114.6,93.61,20,0,12.66,1010,AU,1734400701
50,Humaitá,-7.5061,-63.0208,71.31,99,100,2.19,1013,BR,1734400702
51,Anshun,26.25,105.9333,42.12,83,100,4.59,1023,CN,1734400703
52,Taltal,-25.4,-70.4833,65.64,78,9,2.01,1014,CL,1734400704
53,Parelhas,-6.6878,-36.6575,77.43,75,72,18.63,1014,BR,1734400705
54,Kholmsk,47.0511,142.0569,18.16,71,100,11.9,1014,RU,1734400706
55,Utrik,11.2278,169.8474,81.46,84,95,24.16,1008,MH,1734400707
56,Hastings,50.8552,0.5729,48.78,51,91,10.96,1030,GB,1734400709
57,Touros,-5.1989,-35.4608,79.34,81,97,12.73,1013,BR,1734400710
58,Skellefteå,64.7507,20.9528,25.16,100,100,6.91,985,SE,1734400712
59,Ilulissat,69.2167,-51.1,15.82,57,40,23.02,997,GL,1734400713
60,Port Lincoln,-34.7333,135.8667,68.16,52,0,14.94,1018,AU,1734400714
61,Gamba,-2.65,10.0,76.69,91,100,6.33,1010,GA,1734400715
62,São Vicente,-23.9631,-46.3919,75.97,26,0,1.83,1013,BR,1734400716
63,Saint Paul Harbor,57.79,-152.4072,38.71,93,100,23.02,1000,US,1734400717
64,Mount Isa,-20.7333,139.5,103.77,29,11,6.91,1003,AU,1734400719
65,Selfoss,63.9331,-20.9971,33.04,81,100,5.14,1002,IS,1734400721
66,Ushuaia,-54.8,-68.3,49.66,81,40,2.3,1009,AR,1734400598
67,Iqaluit,63.7506,-68.5145,-0.67,65,75,3.44,1006,CA,1734400723
68,Stanley,54.868,-1.6985,46.53,86,75,16.11,1022,GB,1734400724
69,Saldanha,-33.0117,17.9442,51.85,72,100,4.99,1016,ZA,1734400725
70,Hawaiian Paradise Park,19.5933,-154.9731,74.88,94,100,5.75,1014,US,1734400726
71,Qaqortoq,60.7167,-46.0333,15.58,81,100,8.9,1007,GL,1734400727
72,Haiku-Pauwela,20.9219,-156.3051,80.22,71,7,14.0,1014,US,1734400728
73,Bilibino,68.0546,166.4372,-8.64,99,100,0.49,1022,RU,1734400729
74,Minas de Marcona,-15.2119,-75.1103,60.64,83,100,10.22,1014,PE,1734400730
75,Nova Sintra,14.8667,-24.7167,78.24,79,100,9.33,1015,CV,1734400732
76,Fale old settlement,-9.3852,-171.2468,81.77,78,100,19.33,1005,TK,1734400733
77,Igarka,67.4667,86.5833,-5.58,93,99,16.73,1022,RU,1734400734
78,Ust-Nera,64.5667,143.2,-23.62,97,57,2.15,1031,RU,1734400735
79,Thompson,55.7435,-97.8558,3.36,78,100,5.75,1022,CA,1734400736
80,Praia da Vitória,38.7333,-27.0667,57.45,88,20,9.73,1012,PT,1734400737
81,Nizhneudinsk,54.9076,99.0276,15.57,89,100,1.03,1048,RU,1734400738
82,Azul,-36.777,-59.8585,60.03,63,88,8.7,1018,AR,1734400739
83,Jamestown,42.097,-79.2353,45.01,99,100,11.5,1014,US,1734400740
84,Inhambane,-23.865,35.3833,78.67,92,88,9.17,1011,MZ,1734400742
85,Polyarny,69.1989,33.4478,7.5,88,100,8.88,995,RU,1734400743
86,Kourou,5.1552,-52.6478,77.07,90,100,5.75,1013,GF,1734400744
87,Vicuña,-30.0319,-70.7081,74.32,52,59,1.99,1014,CL,1734400541
88,Aykhal,66.0,111.5,10.72,89,100,18.81,1020,RU,1734400747
89,Wailua Homesteads,22.0669,-159.378,77.79,80,75,5.75,1014,US,1734400748
90,Avarua,-21.2078,-159.775,78.85,89,20,9.22,1006,CK,1734400579
91,Pisco,-13.7,-76.2167,66.25,88,0,14.97,1013,PE,1734400750
92,Strelka,58.0728,93.0344,5.38,93,97,5.55,1044,RU,1734400751
93,Nuuk,64.1835,-51.7216,25.41,74,75,16.11,1001,GL,1734400753
94,Samcheok,37.4406,129.1708,37.31,27,0,11.3,1023,KR,1734400754
95,Umm Kaddadah,13.6017,26.6876,62.44,32,96,15.88,1014,SD,1734400755
96,Vadsø,70.0744,29.7487,17.76,73,75,10.36,994,NO,1734400756
97,Ancud,-41.8697,-73.8203,54.0,95,97,8.72,1015,CL,1734400757
98,Holualoa,19.6228,-155.9522,78.84,65,0,10.36,1015,US,1734400758
99,Longyearbyen,78.2186,15.6401,17.44,67,75,6.91,1007,SJ,1734400760
100,Chonchi,-42.6128,-73.8092,59.13,98,100,2.48,1016,CL,1734400762
101,La Rinconada,37.4873,-5.9826,49.05,82,100,7.27,1033,ES,1734400763
102,Okha,53.5739,142.9478,27.52,97,100,19.17,1004,RU,1734400764
103,Al Jarādīyah,16.5795,42.9124,75.52,63,10,7.9,1015,SA,1734400765
104,Maumere,-8.6199,122.2111,85.44,69,99,5.99,1009,ID,1734400766
105,Halikko,60.4,23.0833,35.26,75,12,12.41,989,FI,1734400767
106,Bikenibeu Village,1.3673,173.1241,89.56,66,40,11.5,1005,KI,1734400768
107,Iwye,53.9299,25.7727,38.97,96,100,13.47,1002,BY,1734400769
108,Paredon,16.0333,-93.8667,78.13,63,1,16.49,1011,MX,1734400770
109,Badger,64.8,-147.5333,4.91,78,75,5.75,1017,US,1734400772
110,Kabalo,-6.05,26.9167,69.75,97,100,1.36,1010,CD,1734400773
111,Kenai,60.5544,-151.2583,28.15,97,0,13.8,1009,US,1734400774
112,Edinburgh of the Seven Seas,-37.0676,-12.3116,58.89,80,100,11.12,1021,SH,1734400775
113,Saint-François,46.4154,3.9054,36.84,100,100,4.61,1034,FR,1734400776
114,College,64.8569,-147.8028,4.98,78,75,5.75,1017,US,1734400638
115,Tumayr,25.7039,45.868,44.8,15,90,1.95,1024,SA,1734400778
116,Sisimiut,66.9395,-53.6735,16.77,71,93,11.68,993,GL,1734400779
117,Rio Grande,-32.035,-52.0986,65.19,74,1,10.74,1016,BR,1734400780
118,Atafu Village,-8.5421,-172.5159,81.84,78,100,18.77,1005,TK,1734400781
119,Puerto Ayora,-0.7393,-90.3518,72.68,84,64,6.38,1012,EC,1734400783
120,Zhosaly,45.4878,64.0781,21.74,68,100,16.13,1024,KZ,1734400784
121,Lerma,42.0261,-3.7598,36.57,52,100,5.66,1036,ES,1734400785
122,Papatowai,-46.5619,169.4708,56.59,54,2,16.49,1016,NZ,1734400786
123,Naberezhnye Chelny,55.7561,52.4289,27.48,92,85,12.15,996,RU,1734400787
124,Dongola,19.1667,30.4833,65.05,46,100,13.22,1015,SD,1734400788
125,Arteche,12.2645,125.4048,78.51,88,100,9.57,1011,PH,1734400789
126,Cururupu,-1.8283,-44.8683,77.11,87,9,2.53,1012,BR,1734400790
127,St. John's,47.5649,-52.7093,36.16,78,20,19.57,1027,CA,1734400733
128,Vilyuchinsk,52.9306,158.4028,26.87,77,100,9.8,985,RU,1734400792
129,Marhamat,40.4805,72.3139,23.09,79,29,2.06,1032,UZ,1734400793
130,Moab,38.5733,-109.5498,40.5,37,100,1.05,1021,US,1734400785
131,Olonkinbyen,70.9221,-8.7187,27.77,71,52,8.79,1005,SJ,1734400796
132,Machico,32.7,-16.7667,71.71,82,40,14.97,1024,PT,1734400797
133,Talnakh,69.4865,88.3972,1.18,95,100,13.04,1017,RU,1734400798
134,Santa Terezinha,-29.9002,-50.0904,65.59,89,6,10.42,1015,BR,1734400799
135,Afaahiti,-17.75,-149.2833,79.0,78,75,10.02,1010,PF,1734400800
136,Ménaka,15.9182,2.4022,66.74,13,0,9.6,1015,ML,1734400801
137,Mount Pearl,47.5166,-52.7813,35.33,81,20,19.57,1027,CA,1734400802
138,Ceeldheer,3.8488,47.1806,75.76,78,45,19.24,1014,SO,1734400804
139,Yeed,4.55,43.0333,74.23,46,18,17.34,1014,SO,1734400805
140,Tazovsky,67.4667,78.7,-11.65,92,47,13.2,1014,RU,1734400806
141,Tamanghasset,22.785,5.5228,55.31,26,0,18.41,1021,DZ,1734400615
142,Sinabang,2.4803,96.3801,81.0,80,100,1.36,1012,ID,1734400809
143,Puerto Limón,10.0,-83.0333,76.26,87,2,5.79,1013,CR,1734400810
144,San Patricio,28.017,-97.5169,74.62,70,100,10.22,1020,US,1734400812
145,Kutulik,53.3508,102.7839,16.45,94,100,9.31,1047,RU,1734400814
146,Hamilton,39.1834,-84.5333,59.77,92,100,12.66,1017,US,1734400737
147,Vilyuysk,63.7553,121.6247,-19.44,100,88,2.84,1025,RU,1734400816
148,Port Alfred,-33.5906,26.891,60.19,99,100,13.67,1015,ZA,1734400817
149,Bubaque,11.2833,-15.8333,79.52,75,41,9.82,1012,GW,1734400818
150,Lichtenburg,-26.152,26.1597,65.53,67,12,3.89,1012,ZA,1734400819
151,Novodvinsk,64.4165,40.8122,-13.25,95,100,5.64,991,RU,1734400821
152,George Town,5.4112,100.3354,84.13,73,20,6.91,1012,MY,1734400788
153,Carlsbad,33.1581,-117.3506,59.05,82,0,4.0,1020,US,1734400335
154,Murzuk,25.9155,13.9184,51.69,74,0,12.97,1025,LY,1734400824
155,Okhotsk,59.3833,143.3,2.52,77,92,19.6,1009,RU,1734400825
156,Gadzhiyevo,69.2551,33.3362,6.73,91,100,8.34,995,RU,1734400826
157,Lebu,-37.6167,-73.65,58.17,87,90,8.28,1017,CL,1734400659
158,Nizhniy Kuranakh,58.8353,125.4869,-6.3,99,100,3.58,1036,RU,1734400828
159,Red Wing,44.5625,-92.5338,33.89,74,100,12.66,1016,US,1734400829
160,Tiksi,71.6872,128.8694,-12.46,99,34,7.58,1016,RU,1734400830
161,Luanda,-8.8368,13.2343,78.94,85,92,3.6,1010,AO,1734400832
162,Calvinia,-31.4707,19.776,46.33,83,0,1.48,1016,ZA,1734400833
163,São Félix do Xingu,-6.6447,-51.995,73.8,98,98,1.36,1012,BR,1734400834
164,Swift Current,50.2834,-107.8014,7.61,85,100,4.61,1029,CA,1734400811
165,Hithadhoo,-0.6,73.0833,81.9,77,64,18.34,1011,MV,1734400836
166,Bethel,41.3712,-73.414,48.38,90,100,3.0,1024,US,1734400757
167,Mandera,3.9366,41.867,78.04,40,26,7.81,1013,KE,1734400838
168,Roleystone,-32.1167,116.0667,81.48,40,0,12.66,1015,AU,1734400839
169,Lautoka,-17.6167,177.4667,84.06,70,40,12.66,1004,FJ,1734400840
170,Whitehorse,60.7161,-135.0538,8.02,84,100,0.0,1024,CA,1734400842
171,Lerwick,60.1545,-1.1494,44.92,72,100,12.35,1012,GB,1734400843
172,Menongue,-14.6585,17.691,63.46,93,97,3.8,1011,AO,1734400844
173,Akureyri,65.6835,-18.0878,19.33,93,75,9.22,1002,IS,1734400845
174,Tura,25.5198,90.2201,62.06,49,0,2.55,1017,IN,1734400846
175,Tiptūr,13.2586,76.4783,60.28,75,91,2.1,1015,IN,1734400847
176,River Cess,5.46,-9.5828,80.08,82,12,2.89,1012,LR,1734400848
177,Jabor,5.921,169.6434,82.71,80,69,18.57,1005,MH,1734400850
178,Kalix,65.853,23.1565,8.29,98,88,10.38,989,SE,1734400851
179,Puerto Lempira,15.2667,-83.7667,77.88,82,27,13.0,1014,HN,1734400852
180,Lamu,-2.2717,40.902,79.25,81,73,12.66,1012,KE,1734400853
181,Woodward,36.4337,-99.3904,41.97,56,0,5.75,1025,US,1734400854
182,Cole Harbour,44.6724,-63.4751,33.28,78,0,4.61,1033,CA,1734400855
183,Harper,4.375,-7.7169,78.91,84,0,2.04,1011,LR,1734400856
184,Sora,41.7157,13.6141,45.59,67,0,3.98,1034,IT,1734400857
185,East London,-33.0153,27.9116,65.82,95,100,9.31,1014,ZA,1734400827
186,Paoua,7.2427,16.4406,69.21,25,100,5.06,1012,CF,1734400859
187,Leava,-14.3,-178.1667,81.88,77,99,6.71,1004,WF,1734400860
188,Napili-Honokowai,20.9708,-156.6705,80.38,73,1,4.88,1014,US,1734400862
189,Kapaa,22.0752,-159.319,77.47,80,34,1.99,1014,US,1734400863
190,Kavieng,-2.5744,150.7967,84.67,68,98,6.2,1006,PG,1734400864
191,Tôlanaro,-25.0319,46.9987,78.87,65,0,11.5,1014,MG,1734400865
192,East Ballina,-28.8667,153.5833,77.52,88,61,8.19,1009,AU,1734400866
193,Merca,1.7159,44.7717,75.54,85,22,15.75,1013,SO,1734400867
194,Ruston,32.5232,-92.6379,64.22,100,0,4.61,1022,US,1734400868
195,Invercargill,-46.4,168.35,66.02,50,0,8.99,1012,NZ,1734400869
196,Piaçabuçu,-10.4056,-36.4344,78.28,86,10,10.71,1014,BR,1734400654
197,Simpang,-1.2667,104.0833,79.32,91,100,4.5,1011,ID,1734400872
198,Kazygurt,41.7589,69.3864,19.02,42,0,4.5,1027,KZ,1734400873
199,Stará Ľubovňa,49.2986,20.6862,44.2,60,94,8.61,1023,SK,1734400874
200,Sauðarkrokur,65.7461,-19.6394,29.3,85,100,8.95,1000,IS,1734400875
201,Timbuktu,16.7735,-3.0074,65.57,12,44,11.25,1016,ML,1734400846
202,Callao,-12.0667,-77.15,69.71,83,75,12.66,1014,PE,1734400639
203,Lençóis Paulista,-22.5986,-48.8003,65.73,70,0,4.07,1014,BR,1734400861
204,Uturoa,-16.7333,-151.4333,80.78,77,45,7.63,1009,PF,1734400879
205,Ust-Tsilma,65.441,52.1498,0.95,89,99,5.95,997,RU,1734400880
206,Margaret River,-33.95,115.0667,75.6,41,0,5.28,1016,AU,1734400882
207,Ambrizette,-7.2312,12.8666,77.2,90,100,2.82,1010,AO,1734400883
208,Uíge,-7.6087,15.0613,67.1,99,100,1.19,1013,AO,1734400884
209,Jackson,42.4165,-122.8345,47.39,84,100,8.05,1016,US,1734400189
210,Arenápolis,-14.4503,-56.8461,71.92,93,100,2.35,1013,BR,1734400886
211,T’ongch’ŏn-ŭp,38.9539,127.8917,32.25,31,0,7.94,1023,KP,1734400887
212,Agadez,19.75,10.25,55.44,24,18,11.7,1020,NE,1734400888
213,Namsos,64.4662,11.4957,39.11,81,40,12.66,994,NO,1734400890
214,Ntoum,0.3833,9.7833,74.91,96,100,3.65,1010,GA,1734400891
215,Sulţānah,24.4926,39.5857,59.45,26,0,3.44,1020,SA,1734400892
216,Izumi,34.4833,135.4333,51.55,64,40,13.8,1021,JP,1734400893
217,Kismayo,-0.3582,42.5454,77.85,82,13,13.4,1012,SO,1734400894
218,Bridgewater,44.3835,-64.5155,25.63,86,8,2.93,1034,CA,1734400896
219,Ziro,27.6333,93.8333,46.67,51,0,2.89,1021,IN,1734400897
220,Newman,37.3138,-121.0208,49.05,93,100,3.0,1022,US,1734400899
221,Tsiombe,-25.3,45.4833,75.52,82,21,5.3,1013,MG,1734400901
222,Abqaiq,25.9371,49.6776,46.99,22,8,10.16,1023,SA,1734400902
223,Singaraja,-8.112,115.0882,80.82,84,100,3.31,1011,ID,1734400903
224,Papao,-17.75,-149.55,83.88,72,70,8.32,1009,PF,1734400904
225,Punta Cana,18.5818,-68.4043,78.57,83,20,4.61,1016,DO,1734400665
226,Isafjordur,66.0755,-23.124,23.68,92,100,6.64,1000,IS,1734400906
227,Palikir,6.9248,158.1611,81.34,78,100,4.61,1006,FM,1734400907
228,Yuzhno-Kurilsk,44.0306,145.8556,27.73,57,53,16.73,1012,RU,1734400908
229,Vila do Maio,15.1333,-23.2167,77.34,79,100,8.7,1016,CV,1734400909
230,Nogliki,51.8333,143.1667,4.8,92,100,21.27,1009,RU,1734400911
231,Ilhabela,-23.7781,-45.3581,72.48,87,0,3.47,1013,BR,1734400912
232,Opuwo,-18.0607,13.84,71.38,35,59,4.68,1011,NA,1734400913
233,Fortaleza,-3.7227,-38.5247,82.53,78,20,14.97,1012,BR,1734400741
234,Ambovombe,-25.1667,46.0833,75.4,66,12,4.65,1013,MG,1734400915
235,Naryan-Mar,67.6713,53.087,-10.43,93,15,7.09,999,RU,1734400916
236,Lompoc,34.6391,-120.4579,55.92,76,97,5.01,1022,US,1734400917
237,Levuka,50.1834,-105.4011,15.51,94,73,9.71,1026,CA,1734400918
238,Zabaykal'sk,49.6333,117.3167,-1.8,82,7,6.42,1039,RU,1734400919
239,Marquette,46.5333,-87.6335,35.04,91,100,8.99,1006,US,1734400920
240,Severo-Yeniseyskiy,60.3725,93.0408,0.37,92,100,10.07,1039,RU,1734400922
241,Aasiaat,68.7098,-52.8699,3.74,88,100,12.03,996,GL,1734400923
242,Urzhar,47.093,81.6294,3.47,68,0,7.18,1043,KZ,1734400924
243,Dickinson,29.4608,-95.0513,71.08,89,40,8.05,1021,US,1734400678
244,Port Saint John's,-31.6229,29.5448,69.48,90,100,5.46,1012,ZA,1734400927
245,Saint-Félicien,48.6501,-72.4491,30.88,100,100,4.61,1019,CA,1734400928
246,Suntar,62.1444,117.6319,9.77,87,95,8.41,1027,RU,1734400929
247,Itamaracá,-7.7478,-34.8256,78.82,82,97,8.1,1014,BR,1734400930
248,Usman',52.0466,39.7288,31.1,81,96,17.9,995,RU,1734400932
249,São José da Coroa Grande,-8.8978,-35.1478,78.42,85,10,8.84,1014,BR,1734400933
250,Kuala Belait,4.5833,114.1833,83.35,75,13,1.01,1010,BN,1734400935
251,Nabire,-3.3667,135.4833,77.45,89,100,2.68,1007,ID,1734400936
252,Klaksvík,62.2266,-6.589,42.51,73,94,13.58,1008,FO,1734400937
253,Labrador City,52.9463,-66.9114,22.17,79,100,12.66,1019,CA,1734400814
254,Igarapé Miri,-1.975,-48.9597,77.45,84,79,2.84,1011,BR,1734400939
255,Dudinka,69.4058,86.1778,-0.72,94,100,22.53,1015,RU,1734400940
256,Nelson Bay,-32.7167,152.15,82.0,68,0,23.0,1006,AU,1734400941
257,Ancient Oaks,40.5473,-75.5893,45.34,96,100,5.75,1023,US,1734400943
258,Kavaratti,10.5669,72.642,79.77,69,59,4.65,1012,IN,1734400944
259,Nieuw Amsterdam,5.8833,-55.0833,78.12,88,63,10.0,1013,SR,1734400945
260,Uyuni,-20.4597,-66.825,52.7,63,48,23.76,1014,BO,1734400946
261,Obihiro,42.9172,143.2044,24.21,37,14,9.93,1014,JP,1734400947
262,Ribnitz-Damgarten,54.25,12.4667,48.09,86,100,27.34,1017,DE,1734400948
263,Christchurch,-43.5333,172.6333,63.32,41,20,3.44,1019,NZ,1734400927
264,Urangan,-25.3,152.9,81.59,76,37,12.57,1006,AU,1734400950
265,West Bay,19.3667,-81.4167,80.67,83,20,10.36,1015,KY,1734400951
266,Katsuura,35.1333,140.3,52.39,52,2,0.49,1015,JP,1734400952
267,Akranes,64.3218,-22.0749,35.65,64,100,13.73,1001,IS,1734400954
268,Peringat,6.0333,102.2833,80.55,83,20,8.05,1013,MY,1734400955
269,Auki,-8.7676,160.7034,83.44,80,100,4.61,1005,SB,1734400956
270,Patacamaya,-17.2333,-67.9167,48.18,79,93,10.25,1018,BO,1734400957
271,North Bend,43.4065,-124.2243,51.17,100,100,9.22,1012,US,1734400958
272,Las Palmas,28.4204,-14.0131,66.99,60,20,8.05,1027,ES,1734400779
273,Alenquer,-1.9417,-54.7383,80.69,62,87,4.09,1010,BR,1734400961
274,Nova Xavantina,-14.6667,-52.35,72.03,88,80,1.07,1014,BR,1734400868
275,Bélabo,4.9333,13.3,70.47,45,93,1.14,1011,CM,1734400963
276,Weligama,5.9667,80.4167,81.91,87,47,1.99,1010,LK,1734400964
277,Jiuquan,39.7432,98.5174,12.99,46,54,2.37,1040,CN,1734400965
278,Mugumu,-1.85,34.7,59.45,90,59,4.47,1013,TZ,1734400966
279,Dvurechensk,56.5982,61.0953,25.18,78,100,14.36,1003,RU,1734400967
280,Karratha,-20.7377,116.8463,91.29,59,98,17.31,1006,AU,1734400968
281,Kamenka,51.1167,50.3167,27.64,96,100,19.04,998,KZ,1734400969
282,Faya-Largeau,17.9257,19.1043,62.13,23,66,19.08,1016,TD,1734400736
283,Santana,-0.0583,-51.1817,80.78,83,20,9.22,1012,BR,1734400972
284,Queenstown,-31.8976,26.8753,57.33,90,83,2.95,1014,ZA,1734400973
285,Lovington,32.944,-103.3485,46.17,41,0,7.92,1023,US,1734400974
286,Alofi,-19.0595,-169.9187,82.29,65,75,8.05,1005,NU,1734400975
287,Sharqpur Sharif,31.4633,74.1,42.93,19,0,2.19,1017,PK,1734400976
288,Keflavik,64.0049,-22.5624,37.83,60,75,12.66,1001,IS,1734400977
289,Monrovia,6.3005,-10.7969,79.81,80,5,2.46,1012,LR,1734400978
290,Abepura,-2.6333,140.5833,85.01,74,40,3.44,1006,ID,1734400979
291,Puerto López,4.0845,-72.956,78.21,72,92,5.77,1011,CO,1734400981
292,Asău,46.4333,26.4,36.32,94,64,9.98,1024,RO,1734400982
293,Usogorsk,63.4106,48.6872,0.59,98,90,6.26,992,RU,1734400983
294,Sebdou,34.637,-1.3314,38.91,44,0,7.85,1037,DZ,1734400984
295,Federal,-30.9547,-58.7833,64.81,59,0,3.85,1015,AR,1734400985
296,Arkhipo-Osipovka,44.37,38.52,49.48,83,100,29.62,1018,RU,1734400986
297,Mejit,10.2753,170.8646,81.66,84,58,25.75,1007,MH,1734400987
298,Luganville,-15.5333,167.1667,85.62,69,97,6.67,1005,VU,1734400988
299,West End,26.6833,-78.9667,76.1,80,42,24.99,1021,BS,1734400840
300,Pekan,3.4836,103.3996,80.91,78,100,7.25,1012,MY,1734400944
301,Pangody,65.85,74.4859,-4.9,93,100,13.0,1012,RU,1734400992
302,Dolores,-36.3132,-57.6792,56.17,95,2,7.43,1019,AR,1734400843
303,Paramonga,-10.6667,-77.8333,67.17,88,100,7.96,1014,PE,1734400994
304,Lander,42.833,-108.7307,25.99,50,0,4.61,1016,US,1734400996
305,Szigetvár,46.0486,17.8055,39.61,69,0,2.19,1029,HU,1734400997
306,Jonquière,48.4165,-71.2488,28.51,78,100,3.44,1021,CA,1734400883
307,Trancas,-26.2314,-65.2803,73.2,59,97,2.84,1014,AR,1734400999
308,Kruisfontein,-34.0033,24.7314,59.99,72,100,6.87,1015,ZA,1734401000
309,Belmonte,-15.8631,-38.8828,77.32,90,100,4.41,1015,BR,1734401002
310,Kerikeri,-35.2268,173.9474,75.43,38,0,6.55,1005,NZ,1734401003
311,Craig,40.5153,-107.5464,31.62,69,75,5.75,1024,US,1734401005
312,Luena,-11.7833,19.9167,64.08,99,100,2.33,1012,AO,1734401006
313,Vorgashor,67.5833,63.95,-20.47,100,81,4.65,1003,RU,1734401007
314,Mugia,43.1041,-9.2179,57.99,60,100,18.43,1027,ES,1734401008
315,Minbu,20.1833,94.8833,70.79,60,13,6.44,1017,MM,1734401009
316,Angoche,-16.2325,39.9086,77.23,87,100,8.3,1012,MZ,1734401010
317,Ta`ū,-14.2336,-169.5144,82.56,71,94,7.09,1004,AS,1734401012
318,Poronaysk,49.2167,143.1167,8.96,77,11,3.83,1012,RU,1734401013
319,Baganga,7.5739,126.56,78.3,89,100,7.29,1010,PH,1734401014
320,Vila Franca do Campo,37.7167,-25.4333,64.89,99,94,10.13,1014,PT,1734401015
321,Macheng,31.1783,115.0319,48.29,31,100,3.31,1028,CN,1734401016
322,Antalaha,-14.9003,50.2788,72.23,83,69,5.23,1016,MG,1734401017
323,Conde,-7.2597,-34.9075,78.26,89,20,5.75,1014,BR,1734401018
324,Kill Devil Hills,36.0307,-75.676,59.99,96,0,8.05,1027,US,1734400916
325,Banda Aceh,5.5577,95.3222,81.57,78,100,4.16,1012,ID,1734401020
326,Hermanus,-34.4187,19.2345,57.79,72,19,9.31,1016,ZA,1734401021
327,Alice Springs,-23.7,133.8833,96.35,30,22,17.27,1008,AU,1734401022
328,Puerto Baquerizo Moreno,-0.9,-89.6,72.79,84,93,8.52,1012,EC,1734400808
329,Marabu,4.4148,114.0089,84.34,79,20,0.0,1010,MY,1734400983
330,Scottburgh,-30.2867,30.7532,70.56,92,100,2.59,1011,ZA,1734401026
331,Wanning,18.8003,110.3967,65.97,71,98,7.18,1021,CN,1734401027
332,Calliope,-24.0,151.2,84.04,74,75,17.27,1004,AU,1734401028
333,San Sebastián de La Gomera,28.0916,-17.1133,75.56,27,0,11.5,1024,ES,1734401029
334,Sabang,5.8933,95.3214,81.28,82,96,11.16,1012,ID,1734401030
335,Guerrero Negro,27.9769,-114.0611,59.99,75,36,11.03,1017,MX,1734401031
336,Louiseville,46.2559,-72.9415,30.11,86,100,9.22,1020,CA,1734401032
337,Vorotynets,56.0603,45.8633,26.42,96,100,13.24,984,RU,1734401033
338,Mount Gambier,-37.8333,140.7667,67.37,44,0,14.79,1014,AU,1734401035
339,San José de Las Matas,19.3391,-70.9382,67.5,93,58,4.18,1018,DO,1734401036
340,Al Qubbah,32.7616,22.2424,50.86,91,19,6.64,1028,LY,1734401037
341,Tazacorte,28.629,-17.9293,76.17,26,53,18.41,1024,ES,1734401038
342,Ponta Delgada,37.7333,-25.6667,65.19,77,20,16.11,1014,PT,1734401026
343,Coxen Hole,16.3244,-86.5366,76.28,94,75,2.3,1016,HN,1734401040
344,Puerto Deseado,-47.7503,-65.8938,57.94,77,99,17.49,1013,AR,1734400878
345,Bandar-e Anzali,37.4727,49.4622,48.74,65,100,1.7,1019,IR,1734401042
346,Shaowu,27.3409,117.4831,51.19,45,0,2.59,1026,CN,1734401043
347,Pagar Alam,-4.0167,103.2667,79.68,65,100,2.51,1013,ID,1734401044
348,Saint-Philippe,-21.3585,55.7679,75.6,81,43,11.77,1019,RE,1734401045
349,Peñón Blanco,24.7897,-104.0369,60.67,45,43,4.32,1017,MX,1734401047
350,San Luis,-33.295,-66.3356,74.01,40,98,9.17,1012,AR,1734401048
351,Wynyard,-41.0,145.7167,61.2,76,4,5.99,1005,AU,1734401049
352,La Passe,45.5549,-0.8967,43.21,77,100,8.57,1031,FR,1734401050
353,Hailar,49.2,119.7,-8.32,86,14,2.71,1039,CN,1734401051
354,Sovetskaya Gavan',48.9723,140.2878,5.07,63,9,9.19,1016,RU,1734401052
355,Tāndā,26.55,82.65,55.9,43,0,0.51,1018,IN,1734401053
356,Hammerfest,70.6634,23.6821,14.45,67,75,9.22,990,NO,1734401054
357,Enewetak,11.3474,162.3373,82.06,85,84,23.42,1008,MH,1734401056
358,Preobrazheniye,42.9019,133.9064,15.46,44,14,6.96,1022,RU,1734401057
359,Nantucket,41.2835,-70.0995,45.14,95,100,21.14,1028,US,1734400806
360,Djibouti,11.5,42.5,67.26,80,6,10.96,1017,DJ,1734401059
361,Naivasha,-0.7167,36.4359,53.38,93,52,3.2,1018,KE,1734401060
362,Qarazhal,48.0078,70.7903,11.23,74,57,19.24,1034,KZ,1734400873
363,Muravlenko,63.7898,74.523,4.32,95,100,16.82,1013,RU,1734401065
364,Lüderitz,-26.6481,15.1594,57.04,74,4,22.82,1012,NA,1734401066
365,Shahbā,32.8551,36.629,42.62,63,0,6.42,1024,SY,1734401067
366,Alaverdi,41.0977,44.6732,30.02,68,100,6.26,1023,AM,1734401068
367,Bel Ombre,-4.6167,55.4167,76.84,94,40,1.14,1012,SC,1734401069
368,Kondagaon,19.6,81.6667,55.63,42,96,2.26,1017,IN,1734401070
369,Baskil,38.5679,38.8238,29.03,93,90,5.17,1030,TR,1734401071
370,Crane,31.3974,-102.3501,56.61,34,0,11.25,1022,US,1734401073
371,Pacific Grove,36.6177,-121.9166,55.65,94,100,1.99,1022,US,1734401074
372,Olinda,-8.0089,-34.8553,82.13,78,75,5.75,1014,BR,1734401076
373,Crixás,-14.5489,-49.9692,73.17,88,87,3.4,1013,BR,1734400956
374,Pontianak,-0.0333,109.3333,82.38,89,20,4.61,1010,ID,1734401078
375,La Toma,-33.0526,-65.6238,68.29,50,46,9.19,1014,AR,1734401079
376,Mahibadhoo,3.7833,72.9667,81.12,81,96,11.5,1011,MV,1734401080
377,Ascension,30.2169,-90.9001,69.8,92,100,0.0,1024,US,1734401081
378,Mahdia,35.5047,11.0622,59.83,55,100,15.79,1034,TN,1734401082
379,Mudgee,-32.5943,149.5871,92.64,30,0,11.65,1008,AU,1734401083
380,Hadibu,12.65,54.0333,74.7,68,11,18.21,1017,YE,1734401084
381,Sola,-13.8833,167.55,82.35,74,99,3.76,1005,VU,1734401085
382,Revda,56.801,59.9303,24.98,87,98,13.89,1001,RU,1734401086
383,Amga,60.8953,131.9608,-25.13,100,100,1.74,1031,RU,1734401088
384,Malabar,-33.9667,151.25,100.71,52,0,16.11,1005,AU,1734401089
385,Pangkalanbuun,-2.6833,111.6167,86.65,68,98,2.75,1010,ID,1734400815
386,Mubi,10.2676,13.2644,63.19,31,100,3.49,1014,NG,1734401091
387,San Julián,21.0167,-102.1667,64.11,26,100,2.53,1015,MX,1734401092
388,Manokwari,-0.8667,134.0833,83.19,76,100,7.78,1007,ID,1734401093
389,São João da Barra,-21.6403,-41.0511,75.83,93,96,2.95,1012,BR,1734400919
390,Pastavy,55.1168,26.8326,38.89,79,87,19.98,999,BY,1734400893
391,Savanna-la-Mar,18.219,-78.1332,76.93,92,8,2.01,1015,JM,1734401096
392,Suva,-18.1416,178.4415,87.28,62,40,6.91,1004,FJ,1734401097
393,San Antonio de Palé,-1.4014,5.6325,79.36,83,73,4.63,1010,GQ,1734401044
394,Kailua-Kona,19.6406,-155.9956,83.98,56,0,9.22,1014,US,1734401100
395,Carnarvon,-24.8667,113.6333,87.53,41,0,14.2,1007,AU,1734401101
396,Glen Innes,-29.7333,151.7333,75.78,65,62,5.39,1010,AU,1734401102
397,Poyang,28.9924,116.6675,48.6,40,11,5.84,1027,CN,1734401103
398,At Tāj,24.2049,23.2857,48.72,50,87,10.51,1023,LY,1734401104
399,Kapuskasing,49.4169,-82.4331,37.4,100,100,9.22,1003,CA,1734401105
400,Salina Cruz,16.1667,-95.2,79.0,59,2,17.4,1013,MX,1734401106
401,Corner Brook,48.9667,-57.9484,25.2,97,11,3.76,1028,CA,1734400965
402,Maintirano,-18.0667,44.0167,80.91,78,67,4.9,1014,MG,1734401108
403,La Rioja,-29.4111,-66.8507,80.58,48,11,10.2,1012,AR,1734400972
404,Qom,34.6401,50.8764,34.11,40,100,4.03,1025,IR,1734401111
405,Vorkuta,67.5,64.0,-21.21,100,78,4.18,1003,RU,1734401112
406,Shortandy,51.7006,70.9994,8.42,86,95,15.35,1034,KZ,1734401113
407,Laranjeiras do Sul,-25.4078,-52.4161,57.63,85,0,2.19,1015,BR,1734400861
408,Saint Augustine Beach,29.8505,-81.2654,66.06,94,40,5.75,1025,US,1734401115
409,Arrondissement de Rethel,49.5,4.3333,41.68,95,85,3.89,1033,FR,1734401116
410,Codrington,-38.2667,141.9667,66.4,50,2,22.17,1013,AU,1734401118
411,Mwinilunga,-11.7358,24.4293,62.8,98,100,4.79,1013,ZM,1734401120
412,Parnarama,-5.6817,-43.0933,79.57,56,63,2.21,1011,BR,1734401121
413,Howrah,22.5892,88.3103,62.6,82,20,5.75,1016,IN,1734401122
414,Ust'-Ilimsk,58.0006,102.6619,16.11,91,100,8.21,1044,RU,1734401123
415,Nesebar,42.7833,27.7333,34.68,76,7,6.2,1028,BG,1734401124
416,Masina,-4.3836,15.3914,73.69,94,75,0.0,1012,CD,1734401126
417,Dakhla,23.6848,-15.958,70.14,40,87,11.7,1022,EH,1734401127
418,Gaalkacyo,6.7697,47.4308,70.61,60,5,13.47,1015,SO,1734401128
419,Murashi,59.3999,48.9615,16.97,96,99,5.93,988,RU,1734401130
420,Margate,51.3813,1.3862,45.88,88,3,11.99,1029,GB,1734401075
421,Khovd,48.0056,91.6419,10.67,96,100,3.53,1042,MN,1734401132
422,Prado,-17.3411,-39.2208,76.6,92,100,5.73,1015,BR,1734400917
423,Tirumullaivāsal,11.2333,79.8333,72.5,83,100,12.82,1011,IN,1734401134
424,Dadukou,26.5479,101.7054,52.74,70,0,1.57,1019,CN,1734401135
425,Parham,17.0968,-61.7705,78.49,77,20,6.91,1016,AG,1734401136
426,Santa Cruz de la Sierra,-17.8,-63.1667,80.06,69,16,4.61,1012,BO,1734400976
427,Beau Vallon,-20.4189,57.6953,77.23,78,40,12.66,1018,MU,1734401138
428,Naryn,41.4287,75.9911,-5.03,66,0,10.16,1049,KG,1734401017
429,Manismata,-2.4667,111.0333,86.41,67,100,2.77,1010,ID,1734401141
430,Howard Springs,-12.497,131.047,93.97,77,100,11.74,1004,AU,1734401142
431,Arraial do Cabo,-22.9661,-42.0278,73.09,96,61,6.29,1013,BR,1734401144
432,Pokhara,28.2333,83.9833,54.82,35,0,3.71,1019,NP,1734401146
433,Kostomuksha,64.571,30.5767,8.28,86,100,5.44,990,RU,1734400885
434,Baiyin,36.5583,104.2081,18.07,63,2,2.95,1040,CN,1734401148
435,Buala,-8.145,159.5921,84.58,75,99,3.33,1005,SB,1734401150
436,Koulamoutou,-1.1303,12.4736,71.92,99,100,1.52,1011,GA,1734401151
437,Thunder Bay,48.4001,-89.3168,33.78,86,100,10.36,1004,CA,1734401012
438,Fort Bragg,35.139,-79.006,53.8,91,0,0.0,1026,US,1734401153
439,Ulsteinvik,62.3432,5.8487,41.31,73,100,5.99,1008,NO,1734401154
440,Labuan Bajo,-8.4964,119.8877,84.33,72,95,3.06,1009,ID,1734401155
441,Kerben,40.2951,72.1863,20.82,73,9,2.62,1032,KG,1734401156
442,Tsuruga,35.6455,136.0558,43.3,90,91,6.58,1021,JP,1734401052
443,Belyye Berega,53.2085,34.6641,33.13,87,100,13.87,998,RU,1734401158
444,Soyo,-6.1349,12.3689,77.97,89,100,4.74,1010,AO,1734401160
445,Yeppoon,-23.1333,150.7333,81.27,78,83,10.38,1003,AU,1734401161
446,La Ronge,55.1001,-105.2842,5.25,78,100,10.36,1024,CA,1734400992
447,Pathein,16.7833,94.7333,75.16,63,91,9.48,1014,MM,1734401163
448,Medina,24.4686,39.6142,59.43,26,0,3.44,1020,SA,1734400789
449,Dêqên,29.9618,90.7188,31.48,15,0,2.15,1019,CN,1734401165
450,Cabo San Lucas,22.8909,-109.9124,72.75,80,0,10.36,1015,MX,1734401108
451,Saipan,15.1355,145.701,90.3,81,40,21.85,1011,MP,1734401167
452,Abasolo,20.45,-101.5167,64.54,28,100,4.72,1016,MX,1734400989
453,Palpa,-14.5336,-75.1856,69.85,73,100,1.74,1014,PE,1734401169
454,Silver Springs,29.1044,-82.0206,68.18,93,14,1.99,1024,US,1734401170
455,Colchani,-20.3,-66.9333,57.06,43,62,11.14,1011,BO,1734401172
456,Nacajuca,18.1333,-93.0167,71.02,80,12,4.7,1017,MX,1734401173
457,Vuktyl,63.8567,57.3094,7.88,95,100,5.21,995,RU,1734401174
458,Reuleuet,5.2167,96.2833,81.66,80,100,2.82,1013,ID,1734400881
459,Thinadhoo,0.5333,72.9333,82.08,80,100,17.38,1011,MV,1734401176
460,Balabac,7.9868,117.0645,83.3,75,37,14.52,1010,PH,1734401177
461,Diego de Almagro,-26.3667,-70.05,65.07,47,0,1.16,1013,CL,1734401179
462,Bako,5.7833,36.5667,63.91,46,43,4.88,1013,ET,1734401186
463,Matsushima,38.3736,141.0611,40.78,55,4,6.35,1017,JP,1734401187
464,Weno,7.4515,151.8468,85.95,74,75,8.05,1007,FM,1734401189
465,Fuente Palmera,37.7049,-5.0996,34.75,70,100,6.91,1034,ES,1734401190
466,Bunia,1.5667,30.25,63.25,84,86,2.57,1012,CD,1734401191
467,Porto-Novo,6.4965,2.6036,80.42,87,30,2.62,1010,BJ,1734401192
468,Ishikawa,26.4233,127.8214,68.04,59,75,6.91,1024,JP,1734401193
469,Ashquelon,31.6693,34.5715,57.54,69,10,3.2,1023,IL,1734401194
470,Andergrove,-21.0833,149.1833,83.16,67,34,10.76,1003,AU,1734401196
471,Hafnarfjordur,64.0671,-21.9377,35.47,86,75,12.66,1001,IS,1734401005
472,Mhamid,29.82,-5.72,49.41,35,2,9.98,1036,MA,1734401198
473,Decatur,39.8403,-88.9548,44.65,76,0,8.05,1021,US,1734401131
474,Ribas do Rio Pardo,-20.4431,-53.7592,70.97,72,0,3.38,1014,BR,1734401201
475,Qā’en,33.7265,59.1844,26.28,34,100,6.22,1027,IR,1734401202
476,Titusville,28.6122,-80.8075,72.01,95,40,1.01,1023,US,1734401204
477,Fukuechō,32.6881,128.8419,54.03,57,100,14.03,1024,JP,1734401205
478,Lembeni,-3.7833,37.6167,67.15,89,100,4.07,1014,TZ,1734401206
479,Kununurra,-15.7667,128.7333,98.58,44,99,8.05,1004,AU,1734400955
480,Ad Dabbah,18.05,30.95,66.67,46,100,8.14,1014,SD,1734401208
481,Arquitecto Tomás Romero Pereira,-26.4833,-55.25,62.08,84,0,2.8,1015,PY,1734401209
482,Banfora,10.6333,-4.7667,70.79,15,18,5.06,1013,BF,1734401210
483,Port Macquarie,-31.4333,152.9167,81.07,77,0,13.0,1008,AU,1734401211
484,Pampa,35.5362,-100.9599,41.04,48,0,4.61,1026,US,1734401212
485,Roccella Ionica,38.322,16.4009,51.66,65,0,7.31,1033,IT,1734401214
486,Tarakan,3.3,117.6333,85.5,74,20,3.44,1010,ID,1734401124
487,Isla Vista,34.4133,-119.861,61.45,68,0,6.91,1019,US,1734400992
488,Reggane,26.7158,0.1714,53.83,38,0,20.6,1030,DZ,1734401217
489,Flin Flon,54.7682,-101.865,5.86,97,95,3.53,1022,CA,1734401218
490,Altay,47.8667,88.1167,3.67,91,100,4.18,1047,CN,1734401219
491,Laojunmiao,39.8333,97.7333,8.71,60,100,0.89,1039,CN,1734401220
492,Kangding,30.0513,101.9603,48.92,31,31,0.34,1015,CN,1734401221
493,El Calafate,-50.3408,-72.2768,61.47,60,0,7.56,1008,AR,1734401222
494,Celestún,20.8667,-90.4,73.85,86,0,13.18,1018,MX,1734401223
495,Gizo Government Station,-8.103,156.8419,84.87,73,98,7.7,1005,SB,1734401224
496,Yatou,37.15,122.3833,37.29,84,54,5.01,1029,CN,1734401226
497,Kayangel,8.0823,134.7173,81.73,82,100,17.29,1009,PW,1734401227
498,Mary,37.0,62.5,32.61,49,100,24.9,1019,TM,1734401228
499,Boca Suno,-0.7167,-77.1333,72.57,98,96,1.5,1012,EC,1734401229
500,Happy Valley-Goose Bay,53.3168,-60.3315,30.04,61,100,5.35,1019,CA,1734401231
501,Talcahuano,-36.7167,-73.1167,58.68,88,20,6.91,1016,CL,1734401115
502,Djambala,-2.5447,14.7533,67.14,96,100,3.69,1012,CG,1734401233
503,Amos,48.5669,-78.1162,33.04,99,100,11.7,1009,CA,1734401234
504,Nueve de Julio,-35.4444,-60.8831,63.97,69,3,7.31,1016,AR,1734400970
505,Ivins,37.1686,-113.6794,45.72,37,100,2.3,1019,US,1734401237
506,Kiruna,67.8557,20.2251,4.12,92,100,3.44,992,SE,1734401238
507,San Carlos,9.6612,-68.5827,82.44,57,100,2.75,1011,VE,1734401239
508,Archangelos,36.2149,28.1149,55.38,75,0,9.44,1025,GR,1734401240
509,Tarawa,1.419,172.984,89.69,66,40,10.36,1005,KI,1734401242
510,Hasaki,35.7333,140.8333,53.1,39,20,8.84,1015,JP,1734401243
511,Tymovskoye,50.8456,142.655,7.81,88,99,5.61,1013,RU,1734401244
512,Finisterra,42.9049,-9.2629,58.06,63,100,17.76,1027,ES,1734401245
513,Culiacán,24.7994,-107.3897,67.68,68,0,0.0,1013,MX,1734401101
514,Caleta de Carquín,-11.0925,-77.6267,67.42,88,100,9.17,1014,PE,1734401248
515,Warwick,41.7001,-71.4162,48.29,91,100,13.8,1026,US,1734401072
516,College Station,30.628,-96.3344,69.94,76,0,6.91,1021,US,1734400963
517,Shenjiamen,29.9576,122.298,50.74,45,0,7.2,1028,CN,1734401252
518,Kilindoni,-7.9139,39.6668,79.72,82,10,8.99,1012,TZ,1734401253
519,Kingscliff,-28.2667,153.5667,84.94,83,75,12.66,1009,AU,1734401254
520,Dalaba,10.7,-12.25,62.56,20,99,3.83,1015,GN,1734401255
521,Goz Beida,13.95,20.55,66.83,18,100,6.67,1013,TD,1734401256
522,Sarakhs,36.5449,61.1577,33.42,43,35,14.41,1017,IR,1734401257
523,Kimbe,-5.5502,150.1429,76.55,94,100,6.42,1007,PG,1734401258
524,Sadjoavato,-12.6334,49.349,72.99,82,56,8.03,1015,MG,1734401260
525,Macon,39.8667,-88.9668,44.65,76,0,8.05,1021,US,1734401230
526,Ayoun El Atrous,16.6614,-9.6149,66.94,14,83,13.42,1017,MR,1734401262
527,Brisas de Zicatela,15.8369,-97.0419,79.32,78,0,0.0,1013,MX,1734401263
528,Enriquillo,17.9,-71.2333,74.75,89,4,9.62,1016,DO,1734401264
529,Al Jawf,29.5,38.75,48.69,28,100,6.04,1023,SA,1734401265
530,Tual,-5.6667,132.75,82.62,80,66,16.2,1007,ID,1734401022
531,Tutóia,-2.7619,-42.2744,81.03,80,34,13.91,1011,BR,1734401267
532,Takoradze,4.8845,-1.7554,79.57,83,0,4.18,1011,GH,1734401142
533,Skeldon,5.8833,-57.1333,79.02,84,49,8.28,1013,GY,1734401269
534,Cumana,10.4635,-64.1775,79.9,81,15,7.14,1012,VE,1734401270
535,Panama City Beach,30.1766,-85.8055,64.42,88,0,1.01,1025,US,1734401272
536,Nobres,-14.7203,-56.3275,73.81,92,100,2.55,1013,BR,1734401273
537,Machalí,-34.1833,-70.6667,62.91,45,0,2.06,1015,CL,1734401274
538,Halifax,44.6453,-63.5724,33.8,79,0,4.61,1033,CA,1734400800
539,Jubail,27.0112,49.6583,54.59,42,16,14.58,1023,SA,1734401126
540,Antofagasta,-23.65,-70.4,63.68,83,67,6.49,1015,CL,1734401195
541,Māngrol,21.1167,70.1167,65.52,43,4,14.41,1014,IN,1734401278
542,Rongelap,11.1635,166.8941,81.73,85,96,23.38,1008,MH,1734401280
543,Bamboo Flat,11.7,92.7167,82.49,83,40,4.61,1012,IN,1734401053
544,Muhammadābād,25.6333,83.75,56.32,39,0,1.77,1017,IN,1734401283
545,Jayapura,-2.5333,140.7,88.99,82,100,6.04,1007,ID,1734401284
546,Ingeniero Guillermo N. Juárez,-23.9,-61.85,76.15,48,1,7.74,1013,AR,1734401285
547,Santa Ana,33.7456,-117.8678,60.78,69,40,5.75,1019,US,1734401286
548,North Platte,41.1239,-100.7654,36.37,43,8,5.01,1023,US,1734401090
549,Izhevsk,56.85,53.2333,27.12,94,100,1.99,995,RU,1734401288
550,Çukurca,37.2481,43.6136,31.71,90,100,2.1,1026,TR,1734401289
551,Pascagoula,30.3658,-88.5561,64.4,88,0,3.44,1025,US,1734401290
552,El Granada,37.5027,-122.4694,54.43,94,100,5.75,1022,US,1734401291
553,Mbandaka,0.0487,18.2603,71.83,95,100,4.85,1009,CD,1734401159
554,Saint Croix,17.7397,-64.7388,75.96,91,0,4.61,1016,VI,1734401294
555,Cidade Velha,14.9167,-23.6167,75.67,57,0,8.05,1016,CV,1734401295
556,Hirara,24.8,125.2833,68.7,64,49,14.43,1023,JP,1734401296
557,Kerman,30.2832,57.0788,15.66,62,0,4.61,1023,IR,1734401297
558,Petropavlovsk-Kamchatskiy,53.0452,158.6483,25.39,59,0,13.42,985,RU,1734401298
559,Walvis Bay,-22.9575,14.5053,57.63,88,0,12.35,1011,NA,1734401299
560,Ambanja,-13.6833,48.45,74.55,90,92,3.18,1014,MG,1734401300
561,Al Ghayzah,16.2079,52.176,62.06,23,7,10.89,1019,YE,1734401301
562,Markovo,57.3206,107.0881,14.59,96,100,4.12,1042,RU,1734401302
563,Cherëmushki,52.8356,91.3944,0.43,93,25,3.96,1053,RU,1734401304
564,Qacha's Nek,-30.1154,28.6894,51.62,85,13,3.36,1014,LS,1734401305
565,Safi,32.1667,-8.8333,61.84,44,100,4.41,1029,MA,1734401306
566,Gualdo Tadino,43.2317,12.781,35.87,77,0,5.7,1035,IT,1734401307
567,Lorengau,-2.0226,147.2712,85.03,70,92,9.1,1006,PG,1734401308
568,Gedaref,14.0349,35.3834,74.5,43,99,10.69,1011,SD,1734401309
569,Hūn,29.1268,15.9477,57.6,67,100,9.08,1027,LY,1734401310
570,Nola,40.922,14.5329,48.02,37,0,2.04,1034,IT,1734401311
571,Zavodoukovsk,56.5042,66.5515,22.82,83,100,23.11,1013,RU,1734401312
572,Baillif,16.0202,-61.7463,80.13,79,100,10.2,1016,GP,1734401313
573,San Luis de la Loma,17.2706,-100.8939,77.31,84,100,6.51,1012,MX,1734401315
574,Marathon,44.9,-89.7668,35.13,83,100,20.71,1012,US,1734401316
575,Kukawa,12.9234,13.5606,67.14,46,100,10.89,1014,NG,1734401317
576,Upata,8.0086,-62.3989,75.67,79,49,7.31,1013,VE,1734401318
577,Sitka,57.0531,-135.33,35.49,64,40,4.61,1012,US,1734401319
578,Ciudad Acuña,29.3232,-100.9522,67.3,86,20,4.61,1020,MX,1734401320
